[{"location":{"longitude":-77.05596,"latitude":38.87099},"name":"US East (N. Virginia)","location_name":"Northern Virginia, US","id":"us-east-1"},{"location":{"longitude":-82.9071,"latitude":40.4173},"name":"US East (Ohio)","location_name":"Ohio, US","id":"us-east-2"},{"location":{"longitude":-122.681944,"latitude":45.52},"name":"US West (Oregon)","location_name":"Oregon, US","id":"us-west-2"},{"location":{"longitude":-122.416667,"latitude":37.783333},"name":"US West (N. California)","location_name":"Northern California, US","id":"us-west-1"},{"location":{"longitude":-6.259722,"latitude":53.347778},"name":"EU (Ireland)","location_name":"Ireland","id":"eu-west-1"},{"location":{"longitude":-0.1278,"latitude":51.5074},"name":"EU (London)","location_name":"London, UK","id":"eu-west-2"},{"location":{"longitude":8.683333,"latitude":50.116667},"name":"EU (Frankfurt)","location_name":"Frankfurt, Germany","id":"eu-central-1"},{"location":{"longitude":103.833333,"latitude":1.283333},"name":"Asia Pacific (Singapore)","location_name":"Singapore","id":"ap-southeast-1"},{"location":{"longitude":151.209444,"latitude":-33.865},"name":"Asia Pacific (Sydney)","location_name":"Sydney, Australia","id":"ap-southeast-2"},{"location":{"longitude":139.683333,"latitude":35.683333},"name":"Asia Pacific (Tokyo)","location_name":"Tokyo, Japan","id":"ap-northeast-1"},{"location":{"longitude":126.966667,"latitude":37.566667},"name":"Asia Pacific (Seoul)","location_name":"Seoul, South Korea","id":"ap-northeast-2"},{"location":{"longitude":-46.633333,"latitude":-23.55},"name":"South America (Sao Paulo)","location_name":"Sao Paulo, Brazil","id":"sa-east-1"},{"location":{"longitude":72.88,"latitude":19.07},"name":"Asia Pacific (Mumbai)","location_name":"Mumbai, India","id":"ap-south-1"}]